[{"name": "남산도시자연공원", "gu_name": "중구", "spt_kind": ["테니스"], "lat": "37.5501402", "lng": "126.9903773", "address": "서울특별시 중구 삼일대로 231(예장동)", "tel": "02-3783-5900", "url": "http://parks.seoul.go.kr/template/sub/namsan.do", "img": "http://parks.seoul.go.kr/file/info/view.do?fIdx=1884", "str": null, "end": null}, {"name": "남산도시자연공원", "gu_name": "중구", "spt_kind": ["테니스"], "lat": "37.5501402", "lng": "126.9903773", "address": "서울특별시 중구 삼일대로 231(예장동)", "tel": "02-3783-5900", "url": "http://parks.seoul.go.kr/template/sub/namsan.do", "img": "http://parks.seoul.go.kr/file/info/view.do?fIdx=1884", "str": null, "end": null}, {"name": "남산도시자연공원", "gu_name": "중구", "spt_kind": ["테니스"], "lat": "37.5501402", "lng": "126.9903773", "address": "서울특별시 중구 삼일대로 231(예장동)", "tel": "02-3783-5900", "url": "http://parks.seoul.go.kr/template/sub/namsan.do", "img": "http://parks.seoul.go.kr/file/info/view.do?fIdx=1884", "str": null, "end": null}, {"name": "남산도시자연공원", "gu_name": "중구", "spt_kind": ["테니스"], "lat": "37.5501402", "lng": "126.9903773", "address": "서울특별시 중구 삼일대로 231(예장동)", "tel": "02-3783-5900", "url": "http://parks.seoul.go.kr/template/sub/namsan.do", "img": "http://parks.seoul.go.kr/file/info/view.do?fIdx=1884", "str": null, "end": null}, {"name": "월드컵공원", "gu_name": "마포구", "spt_kind": ["테니스", "농구"], "lat": "37.571805", "lng": "126.878907", "address": "서울특별시 마포구 하늘공원로 84(월드컵공원)", "tel": "02-300-5500", "url": "http://parks.seoul.go.kr/template/sub/worldcuppark.do", "img": "http://parks.seoul.go.kr/file/info/view.do?fIdx=1888", "str": null, "end": null}, {"name": "월드컵공원", "gu_name": "마포구", "spt_kind": ["테니스", "농구"], "lat": "37.571805", "lng": "126.878907", "address": "서울특별시 마포구 하늘공원로 84(월드컵공원)", "tel": "02-300-5500", "url": "http://parks.seoul.go.kr/template/sub/worldcuppark.do", "img": "http://parks.seoul.go.kr/file/info/view.do?fIdx=1888", "str": null, "end": null}, {"name": "월드컵공원", "gu_name": "마포구", "spt_kind": ["테니스", "농구"], "lat": "37.571805", "lng": "126.878907", "address": "서울특별시 마포구 하늘공원로 84(월드컵공원)", "tel": "02-300-5500", "url": "http://parks.seoul.go.kr/template/sub/worldcuppark.do", "img": "http://parks.seoul.go.kr/file/info/view.do?fIdx=1888", "str": null, "end": null}, {"name": "월드컵공원", "gu_name": "마포구", "spt_kind": ["테니스", "농구"], "lat": "37.571805", "lng": "126.878907", "address": "서울특별시 마포구 하늘공원로 84(월드컵공원)", "tel": "02-300-5500", "url": "http://parks.seoul.go.kr/template/sub/worldcuppark.do", "img": "http://parks.seoul.go.kr/file/info/view.do?fIdx=1888", "str": null, "end": null}, {"name": "응봉공원", "gu_name": "성동구", "spt_kind": ["테니스"], "lat": "37.5572281", "lng": "127.0217653", "address": "서울특별시 성동구 금호동1가 산1-72", "tel": "02-2293-7646", "url": null, "img": "http://parks.seoul.go.kr/file/info/view.do?fIdx=1894", "str": null, "end": null}, {"name": "응봉공원", "gu_name": "성동구", "spt_kind": ["테니스"], "lat": "37.5572281", "lng": "127.0217653", "address": "서울특별시 성동구 금호동1가 산1-72", "tel": "02-2293-7646", "url": null, "img": "http://parks.seoul.go.kr/file/info/view.do?fIdx=1894", "str": null, "end": null}, {"name": "성수근린공원", "gu_name": "성동구", "spt_kind": ["농구"], "lat": "37.5448144", "lng": "127.0524023", "address": "서울특별시 성동구 성수2가 3동 302-25", "tel": "02-2286-5657", "url": null, "img": "http://parks.seoul.go.kr/file/info/view.do?fIdx=1896", "str": null, "end": null}, {"name": "샛마을근린공원", "gu_name": "강동구", "spt_kind": ["농구"], "lat": "37.5504807", "lng": "127.1471618", "address": "서울특별시 강동구 명일1동 288", "tel": "02-3425-6444", "url": null, "img": "http://parks.seoul.go.kr/file/info/view.do?fIdx=1897", "str": null, "end": null}, {"name": "샛마을근린공원", "gu_name": "강동구", "spt_kind": ["농구"], "lat": "37.5504807", "lng": "127.1471618", "address": "서울특별시 강동구 명일1동 288", "tel": "02-3425-6444", "url": null, "img": "http://parks.seoul.go.kr/file/info/view.do?fIdx=1897", "str": null, "end": null}, {"name": "샛마을근린공원", "gu_name": "강동구", "spt_kind": ["농구"], "lat": "37.5504807", "lng": "127.1471618", "address": "서울특별시 강동구 명일1동 288", "tel": "02-3425-6444", "url": null, "img": "http://parks.seoul.go.kr/file/info/view.do?fIdx=1897", "str": null, "end": null}, {"name": "샛마을근린공원", "gu_name": "강동구", "spt_kind": ["농구"], "lat": "37.5504807", "lng": "127.1471618", "address": "서울특별시 강동구 명일1동 288", "tel": "02-3425-6444", "url": null, "img": "http://parks.seoul.go.kr/file/info/view.do?fIdx=1897", "str": null, "end": null}, {"name": "영등포근린공원", "gu_name": "영등포구", "spt_kind": ["농구", "풋살"], "lat": "37.515423", "lng": "126.910662", "address": "서울특별시 영등포구 신길로 275", "tel": "02-2670-3716", "url": null, "img": "http://parks.seoul.go.kr/file/info/view.do?fIdx=1901", "str": null, "end": null}, {"name": "보라매근린공원", "gu_name": "동작구", "spt_kind": ["테니스", "농구"], "lat": "37.492333", "lng": "126.918289", "address": "서울특별시 동작구 여의대방로20길 33(보라매공원)", "tel": "02-2181-1191~1195", "url": "http://parks.seoul.go.kr/template/sub/boramae.do", "img": "http://parks.seoul.go.kr/file/info/view.do?fIdx=1902", "str": null, "end": null}, {"name": "보라매근린공원", "gu_name": "동작구", "spt_kind": ["테니스", "농구"], "lat": "37.492333", "lng": "126.918289", "address": "서울특별시 동작구 여의대방로20길 33(보라매공원)", "tel": "02-2181-1191~1195", "url": "http://parks.seoul.go.kr/template/sub/boramae.do", "img": "http://parks.seoul.go.kr/file/info/view.do?fIdx=1902", "str": null, "end": null}, {"name": "천호근린공원", "gu_name": "강동구", "spt_kind": ["농구"], "lat": "37.5444741", "lng": "127.1263451", "address": "서울특별시 강동구 올림픽로 702(천호공원)", "tel": "02-489-2776", "url": "http://parks.seoul.go.kr/template/sub/cheonho.do", "img": "http://parks.seoul.go.kr/file/info/view.do?fIdx=1904", "str": null, "end": null}, {"name": "천호근린공원", "gu_name": "강동구", "spt_kind": ["농구"], "lat": "37.5444741", "lng": "127.1263451", "address": "서울특별시 강동구 올림픽로 702(천호공원)", "tel": "02-489-2776", "url": "http://parks.seoul.go.kr/template/sub/cheonho.do", "img": "http://parks.seoul.go.kr/file/info/view.do?fIdx=1904", "str": null, "end": null}, {"name": "천호근린공원", "gu_name": "강동구", "spt_kind": ["농구"], "lat": "37.5444741", "lng": "127.1263451", "address": "서울특별시 강동구 올림픽로 702(천호공원)", "tel": "02-489-2776", "url": "http://parks.seoul.go.kr/template/sub/cheonho.do", "img": "http://parks.seoul.go.kr/file/info/view.do?fIdx=1904", "str": null, "end": null}, {"name": "낙산근린공원", "gu_name": "종로구", "spt_kind": ["농구"], "lat": "37.580477", "lng": "127.007587", "address": "서울특별시 종로구 낙산길 41 (우) 03085", "tel": "02-743-7985~6", "url": "http://parks.seoul.go.kr/template/sub/naksan.do", "img": "http://parks.seoul.go.kr/file/info/view.do?fIdx=1908", "str": null, "end": null}, {"name": "양재시민의숲", "gu_name": "서초구", "spt_kind": ["농구", "테니스"], "lat": "37.471225", "lng": "127.035042", "address": "서울특별시 서초구 매헌로 99 (양재동)", "tel": "02-575-3895", "url": "http://parks.seoul.go.kr/template/sub/citizen.do", "img": "http://parks.seoul.go.kr/file/info/view.do?fIdx=1909", "str": null, "end": null}, {"name": "양재시민의숲", "gu_name": "서초구", "spt_kind": ["농구", "테니스"], "lat": "37.471225", "lng": "127.035042", "address": "서울특별시 서초구 매헌로 99 (양재동)", "tel": "02-575-3895", "url": "http://parks.seoul.go.kr/template/sub/citizen.do", "img": "http://parks.seoul.go.kr/file/info/view.do?fIdx=1909", "str": null, "end": null}, {"name": "효창근린공원", "gu_name": "용산구", "spt_kind": ["농구"], "lat": "37.545234", "lng": "126.95993", "address": "서울특별시 용산구 효창원로 177-18", "tel": "02-2199-7608", "url": null, "img": "http://parks.seoul.go.kr/file/info/view.do?fIdx=1912", "str": null, "end": null}, {"name": "효창근린공원", "gu_name": "용산구", "spt_kind": ["농구"], "lat": "37.545234", "lng": "126.95993", "address": "서울특별시 용산구 효창원로 177-18", "tel": "02-2199-7608", "url": null, "img": "http://parks.seoul.go.kr/file/info/view.do?fIdx=1912", "str": null, "end": null}, {"name": "효창근린공원", "gu_name": "용산구", "spt_kind": ["농구"], "lat": "37.545234", "lng": "126.95993", "address": "서울특별시 용산구 효창원로 177-18", "tel": "02-2199-7608", "url": null, "img": "http://parks.seoul.go.kr/file/info/view.do?fIdx=1912", "str": null, "end": null}, {"name": "효창근린공원", "gu_name": "용산구", "spt_kind": ["농구"], "lat": "37.545234", "lng": "126.95993", "address": "서울특별시 용산구 효창원로 177-18", "tel": "02-2199-7608", "url": null, "img": "http://parks.seoul.go.kr/file/info/view.do?fIdx=1912", "str": null, "end": null}, {"name": "효창근린공원", "gu_name": "용산구", "spt_kind": ["농구"], "lat": "37.545234", "lng": "126.95993", "address": "서울특별시 용산구 효창원로 177-18", "tel": "02-2199-7608", "url": null, "img": "http://parks.seoul.go.kr/file/info/view.do?fIdx=1912", "str": null, "end": null}, {"name": "효창근린공원", "gu_name": "용산구", "spt_kind": ["농구"], "lat": "37.545234", "lng": "126.95993", "address": "서울특별시 용산구 효창원로 177-18", "tel": "02-2199-7608", "url": null, "img": "http://parks.seoul.go.kr/file/info/view.do?fIdx=1912", "str": null, "end": null}, {"name": "효창근린공원", "gu_name": "용산구", "spt_kind": ["농구"], "lat": "37.545234", "lng": "126.95993", "address": "서울특별시 용산구 효창원로 177-18", "tel": "02-2199-7608", "url": null, "img": "http://parks.seoul.go.kr/file/info/view.do?fIdx=1912", "str": null, "end": null}, {"name": "고척근린공원", "gu_name": "구로구", "spt_kind": ["테니스", "농구"], "lat": "37.5042944", "lng": "126.8521495", "address": "서울특별시 구로구 고척로45길 39(고척공원)", "tel": "02-860-3086", "url": null, "img": "http://parks.seoul.go.kr/file/info/view.do?fIdx=1921", "str": null, "end": null}, {"name": "고척근린공원", "gu_name": "구로구", "spt_kind": ["테니스", "농구"], "lat": "37.5042944", "lng": "126.8521495", "address": "서울특별시 구로구 고척로45길 39(고척공원)", "tel": "02-860-3086", "url": null, "img": "http://parks.seoul.go.kr/file/info/view.do?fIdx=1921", "str": null, "end": null}, {"name": "고척근린공원", "gu_name": "구로구", "spt_kind": ["테니스", "농구"], "lat": "37.5042944", "lng": "126.8521495", "address": "서울특별시 구로구 고척로45길 39(고척공원)", "tel": "02-860-3086", "url": null, "img": "http://parks.seoul.go.kr/file/info/view.do?fIdx=1921", "str": null, "end": null}, {"name": "고척근린공원", "gu_name": "구로구", "spt_kind": ["테니스", "농구"], "lat": "37.5042944", "lng": "126.8521495", "address": "서울특별시 구로구 고척로45길 39(고척공원)", "tel": "02-860-3086", "url": null, "img": "http://parks.seoul.go.kr/file/info/view.do?fIdx=1921", "str": null, "end": null}, {"name": "고척근린공원", "gu_name": "구로구", "spt_kind": ["테니스", "농구"], "lat": "37.5042944", "lng": "126.8521495", "address": "서울특별시 구로구 고척로45길 39(고척공원)", "tel": "02-860-3086", "url": null, "img": "http://parks.seoul.go.kr/file/info/view.do?fIdx=1921", "str": null, "end": null}, {"name": "고척근린공원", "gu_name": "구로구", "spt_kind": ["테니스", "농구"], "lat": "37.5042944", "lng": "126.8521495", "address": "서울특별시 구로구 고척로45길 39(고척공원)", "tel": "02-860-3086", "url": null, "img": "http://parks.seoul.go.kr/file/info/view.do?fIdx=1921", "str": null, "end": null}, {"name": "고척근린공원", "gu_name": "구로구", "spt_kind": ["테니스", "농구"], "lat": "37.5042944", "lng": "126.8521495", "address": "서울특별시 구로구 고척로45길 39(고척공원)", "tel": "02-860-3086", "url": null, "img": "http://parks.seoul.go.kr/file/info/view.do?fIdx=1921", "str": null, "end": null}, {"name": "노량진공원", "gu_name": "동작구", "spt_kind": ["테니스"], "lat": "37.510234", "lng": "126.928607", "address": "서울특별시 동작구 여의대방로 15-45(여의대방로36길 71)", "tel": "02-820-9845", "url": null, "img": "http://parks.seoul.go.kr/file/info/view.do?fIdx=1928", "str": null, "end": null}, {"name": "노량진공원", "gu_name": "동작구", "spt_kind": ["테니스"], "lat": "37.510234", "lng": "126.928607", "address": "서울특별시 동작구 여의대방로 15-45(여의대방로36길 71)", "tel": "02-820-9845", "url": null, "img": "http://parks.seoul.go.kr/file/info/view.do?fIdx=1928", "str": null, "end": null}, {"name": "노량진공원", "gu_name": "동작구", "spt_kind": ["테니스"], "lat": "37.510234", "lng": "126.928607", "address": "서울특별시 동작구 여의대방로 15-45(여의대방로36길 71)", "tel": "02-820-9845", "url": null, "img": "http://parks.seoul.go.kr/file/info/view.do?fIdx=1928", "str": null, "end": null}, {"name": "노량진공원", "gu_name": "동작구", "spt_kind": ["테니스"], "lat": "37.510234", "lng": "126.928607", "address": "서울특별시 동작구 여의대방로 15-45(여의대방로36길 71)", "tel": "02-820-9845", "url": null, "img": "http://parks.seoul.go.kr/file/info/view.do?fIdx=1928", "str": null, "end": null}, {"name": "노량진공원", "gu_name": "동작구", "spt_kind": ["테니스"], "lat": "37.510234", "lng": "126.928607", "address": "서울특별시 동작구 여의대방로 15-45(여의대방로36길 71)", "tel": "02-820-9845", "url": null, "img": "http://parks.seoul.go.kr/file/info/view.do?fIdx=1928", "str": null, "end": null}, {"name": "노량진공원", "gu_name": "동작구", "spt_kind": ["테니스"], "lat": "37.510234", "lng": "126.928607", "address": "서울특별시 동작구 여의대방로 15-45(여의대방로36길 71)", "tel": "02-820-9845", "url": null, "img": "http://parks.seoul.go.kr/file/info/view.do?fIdx=1928", "str": null, "end": null}, {"name": "노량진공원", "gu_name": "동작구", "spt_kind": ["테니스"], "lat": "37.510234", "lng": "126.928607", "address": "서울특별시 동작구 여의대방로 15-45(여의대방로36길 71)", "tel": "02-820-9845", "url": null, "img": "http://parks.seoul.go.kr/file/info/view.do?fIdx=1928", "str": null, "end": null}, {"name": "노량진공원", "gu_name": "동작구", "spt_kind": ["테니스"], "lat": "37.510234", "lng": "126.928607", "address": "서울특별시 동작구 여의대방로 15-45(여의대방로36길 71)", "tel": "02-820-9845", "url": null, "img": "http://parks.seoul.go.kr/file/info/view.do?fIdx=1928", "str": null, "end": null}, {"name": "노량진공원", "gu_name": "동작구", "spt_kind": ["테니스"], "lat": "37.510234", "lng": "126.928607", "address": "서울특별시 동작구 여의대방로 15-45(여의대방로36길 71)", "tel": "02-820-9845", "url": null, "img": "http://parks.seoul.go.kr/file/info/view.do?fIdx=1928", "str": null, "end": null}, {"name": "노량진공원", "gu_name": "동작구", "spt_kind": ["테니스"], "lat": "37.510234", "lng": "126.928607", "address": "서울특별시 동작구 여의대방로 15-45(여의대방로36길 71)", "tel": "02-820-9845", "url": null, "img": "http://parks.seoul.go.kr/file/info/view.do?fIdx=1928", "str": null, "end": null}, {"name": "동명근린공원", "gu_name": "강동구", "spt_kind": ["농구"], "lat": "37.5598341", "lng": "127.1676703", "address": "서울특별시 강동구 고덕2동 229", "tel": "02-3425-6444", "url": null, "img": "http://parks.seoul.go.kr/file/info/view.do?fIdx=1911", "str": null, "end": null}, {"name": "동명근린공원", "gu_name": "강동구", "spt_kind": ["농구"], "lat": "37.5598341", "lng": "127.1676703", "address": "서울특별시 강동구 고덕2동 229", "tel": "02-3425-6444", "url": null, "img": "http://parks.seoul.go.kr/file/info/view.do?fIdx=1911", "str": null, "end": null}, {"name": "동명근린공원", "gu_name": "강동구", "spt_kind": ["농구"], "lat": "37.5598341", "lng": "127.1676703", "address": "서울특별시 강동구 고덕2동 229", "tel": "02-3425-6444", "url": null, "img": "http://parks.seoul.go.kr/file/info/view.do?fIdx=1911", "str": null, "end": null}, {"name": "동명근린공원", "gu_name": "강동구", "spt_kind": ["농구"], "lat": "37.5598341", "lng": "127.1676703", "address": "서울특별시 강동구 고덕2동 229", "tel": "02-3425-6444", "url": null, "img": "http://parks.seoul.go.kr/file/info/view.do?fIdx=1911", "str": null, "end": null}, {"name": "동명근린공원", "gu_name": "강동구", "spt_kind": ["농구"], "lat": "37.5598341", "lng": "127.1676703", "address": "서울특별시 강동구 고덕2동 229", "tel": "02-3425-6444", "url": null, "img": "http://parks.seoul.go.kr/file/info/view.do?fIdx=1911", "str": null, "end": null}, {"name": "동명근린공원", "gu_name": "강동구", "spt_kind": ["농구"], "lat": "37.5598341", "lng": "127.1676703", "address": "서울특별시 강동구 고덕2동 229", "tel": "02-3425-6444", "url": null, "img": "http://parks.seoul.go.kr/file/info/view.do?fIdx=1911", "str": null, "end": null}, {"name": "동명근린공원", "gu_name": "강동구", "spt_kind": ["농구"], "lat": "37.5598341", "lng": "127.1676703", "address": "서울특별시 강동구 고덕2동 229", "tel": "02-3425-6444", "url": null, "img": "http://parks.seoul.go.kr/file/info/view.do?fIdx=1911", "str": null, "end": null}, {"name": "동명근린공원", "gu_name": "강동구", "spt_kind": ["농구"], "lat": "37.5598341", "lng": "127.1676703", "address": "서울특별시 강동구 고덕2동 229", "tel": "02-3425-6444", "url": null, "img": "http://parks.seoul.go.kr/file/info/view.do?fIdx=1911", "str": null, "end": null}, {"name": "동명근린공원", "gu_name": "강동구", "spt_kind": ["농구"], "lat": "37.5598341", "lng": "127.1676703", "address": "서울특별시 강동구 고덕2동 229", "tel": "02-3425-6444", "url": null, "img": "http://parks.seoul.go.kr/file/info/view.do?fIdx=1911", "str": null, "end": null}, {"name": "동명근린공원", "gu_name": "강동구", "spt_kind": ["농구"], "lat": "37.5598341", "lng": "127.1676703", "address": "서울특별시 강동구 고덕2동 229", "tel": "02-3425-6444", "url": null, "img": "http://parks.seoul.go.kr/file/info/view.do?fIdx=1911", "str": null, "end": null}, {"name": "동명근린공원", "gu_name": "강동구", "spt_kind": ["농구"], "lat": "37.5598341", "lng": "127.1676703", "address": "서울특별시 강동구 고덕2동 229", "tel": "02-3425-6444", "url": null, "img": "http://parks.seoul.go.kr/file/info/view.do?fIdx=1911", "str": null, "end": null}, {"name": "오금근린공원", "gu_name": "송파구", "spt_kind": ["테니스"], "lat": "37.5038715", "lng": "127.1323957", "address": "서울특별시 송파구 오금로 363 오금근린공원 ", "tel": "02-400-0978", "url": null, "img": "http://parks.seoul.go.kr/file/info/view.do?fIdx=1861", "str": null, "end": null}, {"name": "오금근린공원", "gu_name": "송파구", "spt_kind": ["테니스"], "lat": "37.5038715", "lng": "127.1323957", "address": "서울특별시 송파구 오금로 363 오금근린공원 ", "tel": "02-400-0978", "url": null, "img": "http://parks.seoul.go.kr/file/info/view.do?fIdx=1861", "str": null, "end": null}, {"name": "오금근린공원", "gu_name": "송파구", "spt_kind": ["테니스"], "lat": "37.5038715", "lng": "127.1323957", "address": "서울특별시 송파구 오금로 363 오금근린공원 ", "tel": "02-400-0978", "url": null, "img": "http://parks.seoul.go.kr/file/info/view.do?fIdx=1861", "str": null, "end": null}, {"name": "오금근린공원", "gu_name": "송파구", "spt_kind": ["테니스"], "lat": "37.5038715", "lng": "127.1323957", "address": "서울특별시 송파구 오금로 363 오금근린공원 ", "tel": "02-400-0978", "url": null, "img": "http://parks.seoul.go.kr/file/info/view.do?fIdx=1861", "str": null, "end": null}, {"name": "오금근린공원", "gu_name": "송파구", "spt_kind": ["테니스"], "lat": "37.5038715", "lng": "127.1323957", "address": "서울특별시 송파구 오금로 363 오금근린공원 ", "tel": "02-400-0978", "url": null, "img": "http://parks.seoul.go.kr/file/info/view.do?fIdx=1861", "str": null, "end": null}, {"name": "오금근린공원", "gu_name": "송파구", "spt_kind": ["테니스"], "lat": "37.5038715", "lng": "127.1323957", "address": "서울특별시 송파구 오금로 363 오금근린공원 ", "tel": "02-400-0978", "url": null, "img": "http://parks.seoul.go.kr/file/info/view.do?fIdx=1861", "str": null, "end": null}, {"name": "와룡근린공원", "gu_name": "종로구", "spt_kind": ["테니스"], "lat": "37.5907944", "lng": "126.9901672", "address": "서울특별시 종로구 와룡공원길 192 (우) 03063", "tel": "02-2148-4150", "url": null, "img": "http://parks.seoul.go.kr/file/info/view.do?fIdx=1867", "str": null, "end": null}, {"name": "와룡근린공원", "gu_name": "종로구", "spt_kind": ["테니스"], "lat": "37.5907944", "lng": "126.9901672", "address": "서울특별시 종로구 와룡공원길 192 (우) 03063", "tel": "02-2148-4150", "url": null, "img": "http://parks.seoul.go.kr/file/info/view.do?fIdx=1867", "str": null, "end": null}, {"name": "와룡근린공원", "gu_name": "종로구", "spt_kind": ["테니스"], "lat": "37.5907944", "lng": "126.9901672", "address": "서울특별시 종로구 와룡공원길 192 (우) 03063", "tel": "02-2148-4150", "url": null, "img": "http://parks.seoul.go.kr/file/info/view.do?fIdx=1867", "str": null, "end": null}, {"name": "와룡근린공원", "gu_name": "종로구", "spt_kind": ["테니스"], "lat": "37.5907944", "lng": "126.9901672", "address": "서울특별시 종로구 와룡공원길 192 (우) 03063", "tel": "02-2148-4150", "url": null, "img": "http://parks.seoul.go.kr/file/info/view.do?fIdx=1867", "str": null, "end": null}, {"name": "와룡근린공원", "gu_name": "종로구", "spt_kind": ["테니스"], "lat": "37.5907944", "lng": "126.9901672", "address": "서울특별시 종로구 와룡공원길 192 (우) 03063", "tel": "02-2148-4150", "url": null, "img": "http://parks.seoul.go.kr/file/info/view.do?fIdx=1867", "str": null, "end": null}, {"name": "와룡근린공원", "gu_name": "종로구", "spt_kind": ["테니스"], "lat": "37.5907944", "lng": "126.9901672", "address": "서울특별시 종로구 와룡공원길 192 (우) 03063", "tel": "02-2148-4150", "url": null, "img": "http://parks.seoul.go.kr/file/info/view.do?fIdx=1867", "str": null, "end": null}, {"name": "와룡근린공원", "gu_name": "종로구", "spt_kind": ["테니스"], "lat": "37.5907944", "lng": "126.9901672", "address": "서울특별시 종로구 와룡공원길 192 (우) 03063", "tel": "02-2148-4150", "url": null, "img": "http://parks.seoul.go.kr/file/info/view.do?fIdx=1867", "str": null, "end": null}, {"name": "와룡근린공원", "gu_name": "종로구", "spt_kind": ["테니스"], "lat": "37.5907944", "lng": "126.9901672", "address": "서울특별시 종로구 와룡공원길 192 (우) 03063", "tel": "02-2148-4150", "url": null, "img": "http://parks.seoul.go.kr/file/info/view.do?fIdx=1867", "str": null, "end": null}, {"name": "와룡근린공원", "gu_name": "종로구", "spt_kind": ["테니스"], "lat": "37.5907944", "lng": "126.9901672", "address": "서울특별시 종로구 와룡공원길 192 (우) 03063", "tel": "02-2148-4150", "url": null, "img": "http://parks.seoul.go.kr/file/info/view.do?fIdx=1867", "str": null, "end": null}, {"name": "와룡근린공원", "gu_name": "종로구", "spt_kind": ["테니스"], "lat": "37.5907944", "lng": "126.9901672", "address": "서울특별시 종로구 와룡공원길 192 (우) 03063", "tel": "02-2148-4150", "url": null, "img": "http://parks.seoul.go.kr/file/info/view.do?fIdx=1867", "str": null, "end": null}, {"name": "와룡근린공원", "gu_name": "종로구", "spt_kind": ["테니스"], "lat": "37.5907944", "lng": "126.9901672", "address": "서울특별시 종로구 와룡공원길 192 (우) 03063", "tel": "02-2148-4150", "url": null, "img": "http://parks.seoul.go.kr/file/info/view.do?fIdx=1867", "str": null, "end": null}, {"name": "우장산근린공원", "gu_name": "강서구", "spt_kind": ["테니스"], "lat": "37.5541932", "lng": "126.844932", "address": "서울특별시 강서구 내발산동 산4-5", "tel": "02-2600-4185", "url": null, "img": "http://parks.seoul.go.kr/file/info/view.do?fIdx=1878", "str": null, "end": null}, {"name": "우장산근린공원", "gu_name": "강서구", "spt_kind": ["테니스"], "lat": "37.5541932", "lng": "126.844932", "address": "서울특별시 강서구 내발산동 산4-5", "tel": "02-2600-4185", "url": null, "img": "http://parks.seoul.go.kr/file/info/view.do?fIdx=1878", "str": null, "end": null}, {"name": "삼청근린공원", "gu_name": "종로구", "spt_kind": ["테니스"], "lat": "37.5895821", "lng": "126.9842875", "address": "서울특별시 종로구 북촌로 134-1 (우) 03050", "tel": "02-2148-4150", "url": null, "img": "http://parks.seoul.go.kr/file/info/view.do?fIdx=1880", "str": null, "end": null}, {"name": "삼청근린공원", "gu_name": "종로구", "spt_kind": ["테니스"], "lat": "37.5895821", "lng": "126.9842875", "address": "서울특별시 종로구 북촌로 134-1 (우) 03050", "tel": "02-2148-4150", "url": null, "img": "http://parks.seoul.go.kr/file/info/view.do?fIdx=1880", "str": null, "end": null}, {"name": "삼청근린공원", "gu_name": "종로구", "spt_kind": ["테니스"], "lat": "37.5895821", "lng": "126.9842875", "address": "서울특별시 종로구 북촌로 134-1 (우) 03050", "tel": "02-2148-4150", "url": null, "img": "http://parks.seoul.go.kr/file/info/view.do?fIdx=1880", "str": null, "end": null}, {"name": "삼청근린공원", "gu_name": "종로구", "spt_kind": ["테니스"], "lat": "37.5895821", "lng": "126.9842875", "address": "서울특별시 종로구 북촌로 134-1 (우) 03050", "tel": "02-2148-4150", "url": null, "img": "http://parks.seoul.go.kr/file/info/view.do?fIdx=1880", "str": null, "end": null}, {"name": "쌍문근린공원", "gu_name": "도봉구", "spt_kind": ["테니스"], "lat": "37.6531456", "lng": "127.0271316", "address": "서울특별시 도봉구 쌍문동 산80", "tel": "02-2091-3754", "url": null, "img": "http://parks.seoul.go.kr/file/info/view.do?fIdx=1853", "str": null, "end": null}, {"name": "쌍문근린공원", "gu_name": "도봉구", "spt_kind": ["테니스"], "lat": "37.6531456", "lng": "127.0271316", "address": "서울특별시 도봉구 쌍문동 산80", "tel": "02-2091-3754", "url": null, "img": "http://parks.seoul.go.kr/file/info/view.do?fIdx=1853", "str": null, "end": null}, {"name": "쌍문근린공원", "gu_name": "도봉구", "spt_kind": ["테니스"], "lat": "37.6531456", "lng": "127.0271316", "address": "서울특별시 도봉구 쌍문동 산80", "tel": "02-2091-3754", "url": null, "img": "http://parks.seoul.go.kr/file/info/view.do?fIdx=1853", "str": null, "end": null}, {"name": "쌍문근린공원", "gu_name": "도봉구", "spt_kind": ["테니스"], "lat": "37.6531456", "lng": "127.0271316", "address": "서울특별시 도봉구 쌍문동 산80", "tel": "02-2091-3754", "url": null, "img": "http://parks.seoul.go.kr/file/info/view.do?fIdx=1853", "str": null, "end": null}, {"name": "손기정체육공원", "gu_name": "중구", "spt_kind": ["테니스"], "lat": "37.5560189", "lng": "126.9652702", "address": "서울특별시 중구 손기정로 101 ", "tel": "02-3396-5894", "url": null, "img": "http://parks.seoul.go.kr/file/info/view.do?fIdx=1858", "str": null, "end": null}, {"name": "손기정체육공원", "gu_name": "중구", "spt_kind": ["테니스"], "lat": "37.5560189", "lng": "126.9652702", "address": "서울특별시 중구 손기정로 101 ", "tel": "02-3396-5894", "url": null, "img": "http://parks.seoul.go.kr/file/info/view.do?fIdx=1858", "str": null, "end": null}, {"name": "손기정체육공원", "gu_name": "중구", "spt_kind": ["테니스"], "lat": "37.5560189", "lng": "126.9652702", "address": "서울특별시 중구 손기정로 101 ", "tel": "02-3396-5894", "url": null, "img": "http://parks.seoul.go.kr/file/info/view.do?fIdx=1858", "str": null, "end": null}, {"name": "손기정체육공원", "gu_name": "중구", "spt_kind": ["테니스"], "lat": "37.5560189", "lng": "126.9652702", "address": "서울특별시 중구 손기정로 101 ", "tel": "02-3396-5894", "url": null, "img": "http://parks.seoul.go.kr/file/info/view.do?fIdx=1858", "str": null, "end": null}, {"name": "손기정체육공원", "gu_name": "중구", "spt_kind": ["테니스"], "lat": "37.5560189", "lng": "126.9652702", "address": "서울특별시 중구 손기정로 101 ", "tel": "02-3396-5894", "url": null, "img": "http://parks.seoul.go.kr/file/info/view.do?fIdx=1858", "str": null, "end": null}, {"name": "서서울호수공원", "gu_name": "양천구", "spt_kind": ["농구"], "lat": "37.5278392", "lng": "126.8304789", "address": "서울특별시 양천구 남부순환로64길 20 (신월동)", "tel": "02-2604-3004 ", "url": "http://parks.seoul.go.kr/template/sub/lakepark.do", "img": "http://parks.seoul.go.kr/file/info/view.do?fIdx=1473", "str": null, "end": null}, {"name": "서서울호수공원", "gu_name": "양천구", "spt_kind": ["농구"], "lat": "37.5278392", "lng": "126.8304789", "address": "서울특별시 양천구 남부순환로64길 20 (신월동)", "tel": "02-2604-3004 ", "url": "http://parks.seoul.go.kr/template/sub/lakepark.do", "img": "http://parks.seoul.go.kr/file/info/view.do?fIdx=1473", "str": null, "end": null}, {"name": "서서울호수공원", "gu_name": "양천구", "spt_kind": ["농구"], "lat": "37.5278392", "lng": "126.8304789", "address": "서울특별시 양천구 남부순환로64길 20 (신월동)", "tel": "02-2604-3004 ", "url": "http://parks.seoul.go.kr/template/sub/lakepark.do", "img": "http://parks.seoul.go.kr/file/info/view.do?fIdx=1473", "str": null, "end": null}, {"name": "금천체육공원(관악산)", "gu_name": "금천구", "spt_kind": ["농구"], "lat": "37.468164", "lng": "126.908681", "address": "서울특별시 금천구 독산동 산118-4(금천체육공원)", "tel": "02-2627-1664 ", "url": null, "img": "http://parks.seoul.go.kr/file/info/view.do?fIdx=1527", "str": null, "end": null}, {"name": "금천체육공원(관악산)", "gu_name": "금천구", "spt_kind": ["농구"], "lat": "37.468164", "lng": "126.908681", "address": "서울특별시 금천구 독산동 산118-4(금천체육공원)", "tel": "02-2627-1664 ", "url": null, "img": "http://parks.seoul.go.kr/file/info/view.do?fIdx=1527", "str": null, "end": null}, {"name": "만수천공원(관악산)", "gu_name": "금천구", "spt_kind": ["테니스"], "lat": "37.4734274", "lng": "126.9090028", "address": "서울특별시 금천구 독산동 산8 일대", "tel": "02-2627-1662~6", "url": null, "img": "http://parks.seoul.go.kr/file/info/view.do?fIdx=1529", "str": null, "end": null}, {"name": "만수천공원(관악산)", "gu_name": "금천구", "spt_kind": ["테니스"], "lat": "37.4734274", "lng": "126.9090028", "address": "서울특별시 금천구 독산동 산8 일대", "tel": "02-2627-1662~6", "url": null, "img": "http://parks.seoul.go.kr/file/info/view.do?fIdx=1529", "str": null, "end": null}, {"name": "만수천공원(관악산)", "gu_name": "금천구", "spt_kind": ["테니스"], "lat": "37.4734274", "lng": "126.9090028", "address": "서울특별시 금천구 독산동 산8 일대", "tel": "02-2627-1662~6", "url": null, "img": "http://parks.seoul.go.kr/file/info/view.do?fIdx=1529", "str": null, "end": null}, {"name": "만수천공원(관악산)", "gu_name": "금천구", "spt_kind": ["테니스"], "lat": "37.4734274", "lng": "126.9090028", "address": "서울특별시 금천구 독산동 산8 일대", "tel": "02-2627-1662~6", "url": null, "img": "http://parks.seoul.go.kr/file/info/view.do?fIdx=1529", "str": null, "end": null}, {"name": "만수천공원(관악산)", "gu_name": "금천구", "spt_kind": ["테니스"], "lat": "37.4734274", "lng": "126.9090028", "address": "서울특별시 금천구 독산동 산8 일대", "tel": "02-2627-1662~6", "url": null, "img": "http://parks.seoul.go.kr/file/info/view.do?fIdx=1529", "str": null, "end": null}, {"name": "와우근린공원", "gu_name": "마포구", "spt_kind": ["농구"], "lat": "37.5517298", "lng": "126.9289936", "address": "서울특별시 마포구 창전동 3-193번지 일대(홍익대 뒷산)", "tel": "02-3153-9553", "url": null, "img": "http://parks.seoul.go.kr/file/info/view.do?fIdx=1534", "str": null, "end": null}, {"name": "와우근린공원", "gu_name": "마포구", "spt_kind": ["농구"], "lat": "37.5517298", "lng": "126.9289936", "address": "서울특별시 마포구 창전동 3-193번지 일대(홍익대 뒷산)", "tel": "02-3153-9553", "url": null, "img": "http://parks.seoul.go.kr/file/info/view.do?fIdx=1534", "str": null, "end": null}, {"name": "와우근린공원", "gu_name": "마포구", "spt_kind": ["농구"], "lat": "37.5517298", "lng": "126.9289936", "address": "서울특별시 마포구 창전동 3-193번지 일대(홍익대 뒷산)", "tel": "02-3153-9553", "url": null, "img": "http://parks.seoul.go.kr/file/info/view.do?fIdx=1534", "str": null, "end": null}, {"name": "와우근린공원", "gu_name": "마포구", "spt_kind": ["농구"], "lat": "37.5517298", "lng": "126.9289936", "address": "서울특별시 마포구 창전동 3-193번지 일대(홍익대 뒷산)", "tel": "02-3153-9553", "url": null, "img": "http://parks.seoul.go.kr/file/info/view.do?fIdx=1534", "str": null, "end": null}, {"name": "와우근린공원", "gu_name": "마포구", "spt_kind": ["농구"], "lat": "37.5517298", "lng": "126.9289936", "address": "서울특별시 마포구 창전동 3-193번지 일대(홍익대 뒷산)", "tel": "02-3153-9553", "url": null, "img": "http://parks.seoul.go.kr/file/info/view.do?fIdx=1534", "str": null, "end": null}, {"name": "와우근린공원", "gu_name": "마포구", "spt_kind": ["농구"], "lat": "37.5517298", "lng": "126.9289936", "address": "서울특별시 마포구 창전동 3-193번지 일대(홍익대 뒷산)", "tel": "02-3153-9553", "url": null, "img": "http://parks.seoul.go.kr/file/info/view.do?fIdx=1534", "str": null, "end": null}, {"name": "와우근린공원", "gu_name": "마포구", "spt_kind": ["농구"], "lat": "37.5517298", "lng": "126.9289936", "address": "서울특별시 마포구 창전동 3-193번지 일대(홍익대 뒷산)", "tel": "02-3153-9553", "url": null, "img": "http://parks.seoul.go.kr/file/info/view.do?fIdx=1534", "str": null, "end": null}, {"name": "와우근린공원", "gu_name": "마포구", "spt_kind": ["농구"], "lat": "37.5517298", "lng": "126.9289936", "address": "서울특별시 마포구 창전동 3-193번지 일대(홍익대 뒷산)", "tel": "02-3153-9553", "url": null, "img": "http://parks.seoul.go.kr/file/info/view.do?fIdx=1534", "str": null, "end": null}, {"name": "와우근린공원", "gu_name": "마포구", "spt_kind": ["농구"], "lat": "37.5517298", "lng": "126.9289936", "address": "서울특별시 마포구 창전동 3-193번지 일대(홍익대 뒷산)", "tel": "02-3153-9553", "url": null, "img": "http://parks.seoul.go.kr/file/info/view.do?fIdx=1534", "str": null, "end": null}, {"name": "와우근린공원", "gu_name": "마포구", "spt_kind": ["농구"], "lat": "37.5517298", "lng": "126.9289936", "address": "서울특별시 마포구 창전동 3-193번지 일대(홍익대 뒷산)", "tel": "02-3153-9553", "url": null, "img": "http://parks.seoul.go.kr/file/info/view.do?fIdx=1534", "str": null, "end": null}, {"name": "와우근린공원", "gu_name": "마포구", "spt_kind": ["농구"], "lat": "37.5517298", "lng": "126.9289936", "address": "서울특별시 마포구 창전동 3-193번지 일대(홍익대 뒷산)", "tel": "02-3153-9553", "url": null, "img": "http://parks.seoul.go.kr/file/info/view.do?fIdx=1534", "str": null, "end": null}, {"name": "와우근린공원", "gu_name": "마포구", "spt_kind": ["농구"], "lat": "37.5517298", "lng": "126.9289936", "address": "서울특별시 마포구 창전동 3-193번지 일대(홍익대 뒷산)", "tel": "02-3153-9553", "url": null, "img": "http://parks.seoul.go.kr/file/info/view.do?fIdx=1534", "str": null, "end": null}, {"name": "와우근린공원", "gu_name": "마포구", "spt_kind": ["농구"], "lat": "37.5517298", "lng": "126.9289936", "address": "서울특별시 마포구 창전동 3-193번지 일대(홍익대 뒷산)", "tel": "02-3153-9553", "url": null, "img": "http://parks.seoul.go.kr/file/info/view.do?fIdx=1534", "str": null, "end": null}, {"name": "와우근린공원", "gu_name": "마포구", "spt_kind": ["농구"], "lat": "37.5517298", "lng": "126.9289936", "address": "서울특별시 마포구 창전동 3-193번지 일대(홍익대 뒷산)", "tel": "02-3153-9553", "url": null, "img": "http://parks.seoul.go.kr/file/info/view.do?fIdx=1534", "str": null, "end": null}, {"name": "와우근린공원", "gu_name": "마포구", "spt_kind": ["농구"], "lat": "37.5517298", "lng": "126.9289936", "address": "서울특별시 마포구 창전동 3-193번지 일대(홍익대 뒷산)", "tel": "02-3153-9553", "url": null, "img": "http://parks.seoul.go.kr/file/info/view.do?fIdx=1534", "str": null, "end": null}, {"name": "와우근린공원", "gu_name": "마포구", "spt_kind": ["농구"], "lat": "37.5517298", "lng": "126.9289936", "address": "서울특별시 마포구 창전동 3-193번지 일대(홍익대 뒷산)", "tel": "02-3153-9553", "url": null, "img": "http://parks.seoul.go.kr/file/info/view.do?fIdx=1534", "str": null, "end": null}, {"name": "와우근린공원", "gu_name": "마포구", "spt_kind": ["농구"], "lat": "37.5517298", "lng": "126.9289936", "address": "서울특별시 마포구 창전동 3-193번지 일대(홍익대 뒷산)", "tel": "02-3153-9553", "url": null, "img": "http://parks.seoul.go.kr/file/info/view.do?fIdx=1534", "str": null, "end": null}, {"name": "와우근린공원", "gu_name": "마포구", "spt_kind": ["농구"], "lat": "37.5517298", "lng": "126.9289936", "address": "서울특별시 마포구 창전동 3-193번지 일대(홍익대 뒷산)", "tel": "02-3153-9553", "url": null, "img": "http://parks.seoul.go.kr/file/info/view.do?fIdx=1534", "str": null, "end": null}, {"name": "와우근린공원", "gu_name": "마포구", "spt_kind": ["농구"], "lat": "37.5517298", "lng": "126.9289936", "address": "서울특별시 마포구 창전동 3-193번지 일대(홍익대 뒷산)", "tel": "02-3153-9553", "url": null, "img": "http://parks.seoul.go.kr/file/info/view.do?fIdx=1534", "str": null, "end": null}, {"name": "와우근린공원", "gu_name": "마포구", "spt_kind": ["농구"], "lat": "37.5517298", "lng": "126.9289936", "address": "서울특별시 마포구 창전동 3-193번지 일대(홍익대 뒷산)", "tel": "02-3153-9553", "url": null, "img": "http://parks.seoul.go.kr/file/info/view.do?fIdx=1534", "str": null, "end": null}, {"name": "청담근린공원", "gu_name": "강남구", "spt_kind": ["농구"], "lat": "37.5213259", "lng": "127.0524530", "address": "서울특별시 강남구 청담동 66", "tel": "02-3423-6244", "url": null, "img": "http://parks.seoul.go.kr/file/info/view.do?fIdx=1948", "str": null, "end": null}, {"name": "청담근린공원", "gu_name": "강남구", "spt_kind": ["농구"], "lat": "37.5213259", "lng": "127.0524530", "address": "서울특별시 강남구 청담동 66", "tel": "02-3423-6244", "url": null, "img": "http://parks.seoul.go.kr/file/info/view.do?fIdx=1948", "str": null, "end": null}, {"name": "청담근린공원", "gu_name": "강남구", "spt_kind": ["농구"], "lat": "37.5213259", "lng": "127.0524530", "address": "서울특별시 강남구 청담동 66", "tel": "02-3423-6244", "url": null, "img": "http://parks.seoul.go.kr/file/info/view.do?fIdx=1948", "str": null, "end": null}, {"name": "청담근린공원", "gu_name": "강남구", "spt_kind": ["농구"], "lat": "37.5213259", "lng": "127.0524530", "address": "서울특별시 강남구 청담동 66", "tel": "02-3423-6244", "url": null, "img": "http://parks.seoul.go.kr/file/info/view.do?fIdx=1948", "str": null, "end": null}, {"name": "청담근린공원", "gu_name": "강남구", "spt_kind": ["농구"], "lat": "37.5213259", "lng": "127.0524530", "address": "서울특별시 강남구 청담동 66", "tel": "02-3423-6244", "url": null, "img": "http://parks.seoul.go.kr/file/info/view.do?fIdx=1948", "str": null, "end": null}, {"name": "청담근린공원", "gu_name": "강남구", "spt_kind": ["농구"], "lat": "37.5213259", "lng": "127.0524530", "address": "서울특별시 강남구 청담동 66", "tel": "02-3423-6244", "url": null, "img": "http://parks.seoul.go.kr/file/info/view.do?fIdx=1948", "str": null, "end": null}, {"name": "청담근린공원", "gu_name": "강남구", "spt_kind": ["농구"], "lat": "37.5213259", "lng": "127.0524530", "address": "서울특별시 강남구 청담동 66", "tel": "02-3423-6244", "url": null, "img": "http://parks.seoul.go.kr/file/info/view.do?fIdx=1948", "str": null, "end": null}, {"name": "청담근린공원", "gu_name": "강남구", "spt_kind": ["농구"], "lat": "37.5213259", "lng": "127.0524530", "address": "서울특별시 강남구 청담동 66", "tel": "02-3423-6244", "url": null, "img": "http://parks.seoul.go.kr/file/info/view.do?fIdx=1948", "str": null, "end": null}, {"name": "청담근린공원", "gu_name": "강남구", "spt_kind": ["농구"], "lat": "37.5213259", "lng": "127.0524530", "address": "서울특별시 강남구 청담동 66", "tel": "02-3423-6244", "url": null, "img": "http://parks.seoul.go.kr/file/info/view.do?fIdx=1948", "str": null, "end": null}, {"name": "청담근린공원", "gu_name": "강남구", "spt_kind": ["농구"], "lat": "37.5213259", "lng": "127.0524530", "address": "서울특별시 강남구 청담동 66", "tel": "02-3423-6244", "url": null, "img": "http://parks.seoul.go.kr/file/info/view.do?fIdx=1948", "str": null, "end": null}, {"name": "청담근린공원", "gu_name": "강남구", "spt_kind": ["농구"], "lat": "37.5213259", "lng": "127.0524530", "address": "서울특별시 강남구 청담동 66", "tel": "02-3423-6244", "url": null, "img": "http://parks.seoul.go.kr/file/info/view.do?fIdx=1948", "str": null, "end": null}, {"name": "뚝섬한강공원>농구장 3(장애인농구장)", "gu_name": "광진구", "spt_kind": ["농구"], "lat": "127.07273535443075", "lng": "37.528630216846054", "address": "2020년 농구장3(장애인농구장)-뚝섬", "tel": "02-3780-0839", "url": "http://yeyak.seoul.go.kr/reservation/view.web?rsvsvcid=S191116183616806381", "img": "https://yeyak.seoul.go.kr/fileDownload.web?p=/TB_SVCIMG/2019/11/16/S191116183616806381&n=EHplQUPkhC92rm5t4agKu5MGQOV6JT&on=농구대.jpg", "str": "06:00", "end": "20:00"}, {"name": "망원한강공원>농구장(1,2)", "gu_name": "마포구", "spt_kind": ["농구"], "lat": "126.90099504970757", "lng": "37.551000958801175", "address": "2020년 농구장2-망원", "tel": "02-3780-0839", "url": "http://yeyak.seoul.go.kr/reservation/view.web?rsvsvcid=S191116173820394449", "img": "https://yeyak.seoul.go.kr/fileDownload.web?p=/TB_SVCIMG/2019/11/16/S191116173820394449&n=c2A4cxM89ywN34j96CWWG12b6C188f&on=농구대.jpg", "str": "06:00", "end": "20:00"}, {"name": "응봉테니스장>응봉테니스장 5코트", "gu_name": "성동구", "spt_kind": ["테니스"], "lat": "127.03492749262553", "lng": "37.55044984861186", "address": "5코트 평일(수요일)", "tel": "02-2204-7654", "url": "http://yeyak.seoul.go.kr/reservation/view.web?rsvsvcid=S200228165534853151", "img": "https://yeyak.seoul.go.kr/fileDownload.web?p=/TB_SVCIMG/2020/02/28/S200228165534853151&n=D51zfKOFoZcds1nb1tlp9lBZ2q812Y&on=[크기변환]1571115055925-0.jpg", "str": "06:00", "end": "22:00"}, {"name": "응봉테니스장>응봉테니스장 5코트", "gu_name": "성동구", "spt_kind": ["테니스"], "lat": "127.03492749262553", "lng": "37.55044984861186", "address": "5코트 토요일, 일요일, 공휴일", "tel": "02-2204-7654", "url": "http://yeyak.seoul.go.kr/reservation/view.web?rsvsvcid=S200228165828387773", "img": "https://yeyak.seoul.go.kr/fileDownload.web?p=/TB_SVCIMG/2020/02/28/S200228165828387773&n=71H65825X598z8Pdu3Bldrf4lI8uzU&on=[크기변환]1571115055925-0.jpg", "str": "06:00", "end": "22:00"}, {"name": "난지물재생센터", "gu_name": "고양시", "spt_kind": ["테니스"], "lat": "126.84726550206915", "lng": "37.586639294200445", "address": "테니스장(인조잔디) A코트", "tel": "02-300-8509", "url": "http://yeyak.seoul.go.kr/reservation/view.web?rsvsvcid=S181224150744716777", "img": "https://yeyak.seoul.go.kr/fileDownload.web?p=/TB_SVCIMG/2018/12/24/S181224150744716777&n=S32bl5AB9qF92q53r5TLe6Z3aY5g4c&on=테니스장.JPG", "str": "09:00", "end": "17:00"}, {"name": "난지물재생센터", "gu_name": "고양시", "spt_kind": ["테니스"], "lat": "126.84726550206915", "lng": "37.586639294200445", "address": "테니스장(인조잔디) B코트", "tel": "02-300-8509", "url": "http://yeyak.seoul.go.kr/reservation/view.web?rsvsvcid=S181224152535671126", "img": "https://yeyak.seoul.go.kr/fileDownload.web?p=/TB_SVCIMG/2018/12/24/S181224152535671126&n=2PN78F322SGv2dTSWL4rAMmQSKh322&on=테니스장.JPG", "str": "09:00", "end": "17:00"}, {"name": "난지물재생센터", "gu_name": "고양시", "spt_kind": ["테니스"], "lat": "126.84726550206915", "lng": "37.586639294200445", "address": "테니스장(인조잔디) C코트", "tel": "02-300-8509", "url": "http://yeyak.seoul.go.kr/reservation/view.web?rsvsvcid=S181224153348948037", "img": "https://yeyak.seoul.go.kr/fileDownload.web?p=/TB_SVCIMG/2018/12/24/S181224153348948037&n=F9F49zEHR64S5iZrmAdV2l7uM81X91&on=테니스장.JPG", "str": "09:00", "end": "17:00"}, {"name": "난지물재생센터", "gu_name": "고양시", "spt_kind": ["테니스"], "lat": "126.84726550206915", "lng": "37.586639294200445", "address": "테니스장(인조잔디) D코트", "tel": "02-300-8509", "url": "http://yeyak.seoul.go.kr/reservation/view.web?rsvsvcid=S181224153936992865", "img": "https://yeyak.seoul.go.kr/fileDownload.web?p=/TB_SVCIMG/2018/12/24/S181224153936992865&n=blIK16SI4dp5uAQ4WbCB3LizOIRGWC&on=테니스장.JPG", "str": "09:00", "end": "17:00"}, {"name": "뚝섬한강공원>농구장 2", "gu_name": "광진구", "spt_kind": ["농구"], "lat": "127.07713403107361", "lng": "37.527602986968816", "address": "2020년 농구장2-뚝섬", "tel": "02-3780-0839", "url": "http://yeyak.seoul.go.kr/reservation/view.web?rsvsvcid=S191116183112116149", "img": "https://yeyak.seoul.go.kr/fileDownload.web?p=/TB_SVCIMG/2019/11/16/S191116183112116149&n=usYq7f3i582wD471o7s19nYqIh1T5O&on=농구대.jpg", "str": "06:00", "end": "20:00"}, {"name": "응봉공원", "gu_name": "성동구", "spt_kind": ["테니스"], "lat": "127.02182026085195", "lng": "37.5569473910838", "address": "테니스장1 (평일) - 응봉공원", "tel": "02-2293-7646", "url": "http://yeyak.seoul.go.kr/reservation/view.web?rsvsvcid=S140125140023317380", "img": "https://yeyak.seoul.go.kr/fileDownload.web?p=/TB_SVCIMG/2014/01/25/S140125140023317380&n=eDzX1dv62vt6b1nTcM9d2S8oGLc78z&on=사본 -S110418155514225375[1].jpg", "str": "06:00", "end": "19:00"}, {"name": "응봉공원", "gu_name": "성동구", "spt_kind": ["테니스"], "lat": "127.02182026085195", "lng": "37.5569473910838", "address": "테니스장2 (평일) - 응봉공원", "tel": "02-2293-7646", "url": "http://yeyak.seoul.go.kr/reservation/view.web?rsvsvcid=S140125140924738603", "img": "https://yeyak.seoul.go.kr/fileDownload.web?p=/TB_SVCIMG/2014/01/25/S140125140924738603&n=825Q3f421sVUn56xIs8H23fSGQCNg5&on=사본 -S110418155514225375[1].jpg", "str": "06:00", "end": "19:00"}, {"name": "응봉공원", "gu_name": "성동구", "spt_kind": ["테니스"], "lat": "127.02182026085195", "lng": "37.5569473910838", "address": "테니스장1 (토/일/공휴일) - 응봉공원", "tel": "02-2293-7646", "url": "http://yeyak.seoul.go.kr/reservation/view.web?rsvsvcid=S140125141714188670", "img": "https://yeyak.seoul.go.kr/fileDownload.web?p=/TB_SVCIMG/2014/01/25/S140125141714188670&n=2eu95O5PNCo43mNhvr1mZS8b39U1O7&on=사본 -S110418155514225375[1].jpg", "str": "06:00", "end": "19:00"}, {"name": "응봉공원", "gu_name": "성동구", "spt_kind": ["테니스"], "lat": "127.02182026085195", "lng": "37.5569473910838", "address": "테니스장2 (토/일/공휴일) - 응봉공원", "tel": "02-2293-7646", "url": "http://yeyak.seoul.go.kr/reservation/view.web?rsvsvcid=S140125142346333973", "img": "https://yeyak.seoul.go.kr/fileDownload.web?p=/TB_SVCIMG/2014/01/25/S140125142346333973&n=T8OvF5vhF77EVmprL33kUubGc55ejQ&on=사본 -S110418155514225375[1].jpg", "str": "06:00", "end": "19:00"}, {"name": "이촌한강공원>농구장(1,2,3)", "gu_name": "용산구", "spt_kind": ["농구"], "lat": "126.96213497640897", "lng": "37.520858280612636", "address": "2020년 농구장1(한강대교)-이촌", "tel": "02-3780-0839", "url": "http://yeyak.seoul.go.kr/reservation/view.web?rsvsvcid=S200821174750306700", "img": "https://yeyak.seoul.go.kr/fileDownload.web?p=/TB_SVCIMG/2020/08/21/S200821174750306700&n=TGAM9LN2ijAdhWy13sO9YUQR1VbPx2&on=농구대.jpg", "str": "06:00", "end": "20:00"}, {"name": "이촌한강공원>농구장(1,2,3)", "gu_name": "용산구", "spt_kind": ["농구"], "lat": "126.96213497640897", "lng": "37.520858280612636", "address": "2020년 농구장2(한강대교)-이촌", "tel": "02-3780-0839", "url": "http://yeyak.seoul.go.kr/reservation/view.web?rsvsvcid=S200821181044108720", "img": "https://yeyak.seoul.go.kr/fileDownload.web?p=/TB_SVCIMG/2020/08/21/S200821181044108720&n=b1fHeaHj2bZ69y69vC4x9WWlCP4yF4&on=농구대.jpg", "str": "06:00", "end": "20:00"}, {"name": "이촌한강공원>농구장(1,2,3)", "gu_name": "용산구", "spt_kind": ["농구"], "lat": "126.96213497640897", "lng": "37.520858280612636", "address": "2020년 농구장3(금호나들목)-이촌", "tel": "02-3780-0839", "url": "http://yeyak.seoul.go.kr/reservation/view.web?rsvsvcid=S200821182935493476", "img": "https://yeyak.seoul.go.kr/fileDownload.web?p=/TB_SVCIMG/2020/08/21/S200821182935493476&n=ivHys1pwl8R8B86n246EjC3aHNnxbg&on=농구대.jpg", "str": "06:00", "end": "20:00"}, {"name": "이촌한강공원>농구장(1,2,3)", "gu_name": "용산구", "spt_kind": ["농구"], "lat": "126.96213497640897", "lng": "37.520858280612636", "address": "2020년 농구장4(금호나들목)-이촌", "tel": "02-3780-0839", "url": "http://yeyak.seoul.go.kr/reservation/view.web?rsvsvcid=S200821183706883077", "img": "https://yeyak.seoul.go.kr/fileDownload.web?p=/TB_SVCIMG/2020/08/21/S200821183706883077&n=l12452b88ND853DL8h76yq52nT2u3J&on=농구대.jpg", "str": "06:00", "end": "20:00"}, {"name": "이촌한강공원>농구장(1,2,3)", "gu_name": "용산구", "spt_kind": ["농구"], "lat": "126.96213497640897", "lng": "37.520858280612636", "address": "2020년 농구장5(옥수역하부)-이촌", "tel": "02-3780-0839", "url": "http://yeyak.seoul.go.kr/reservation/view.web?rsvsvcid=S200821184720533900", "img": "https://yeyak.seoul.go.kr/fileDownload.web?p=/TB_SVCIMG/2020/08/21/S200821184720533900&n=qD414LHnqboS3Qc4Z33M6f166MbHQa&on=농구대.jpg", "str": "06:00", "end": "20:00"}, {"name": "이촌한강공원>농구장(1,2,3)", "gu_name": "용산구", "spt_kind": ["농구"], "lat": "126.96213497640897", "lng": "37.520858280612636", "address": "2020년 농구장7(청소년광장)-이촌", "tel": "02-3780-0839", "url": "http://yeyak.seoul.go.kr/reservation/view.web?rsvsvcid=S200821185130256967", "img": "https://yeyak.seoul.go.kr/fileDownload.web?p=/TB_SVCIMG/2020/08/21/S200821185130256967&n=6WK2oBY1MEr3vCressKknG4G6ITmiR&on=농구대.jpg", "str": "06:00", "end": "20:00"}, {"name": "이촌한강공원>농구장(1,2,3)", "gu_name": "용산구", "spt_kind": ["농구"], "lat": "126.96213497640897", "lng": "37.520858280612636", "address": "2020년 농구장8(청소년광장)-이촌", "tel": "02-3780-0839", "url": "http://yeyak.seoul.go.kr/reservation/view.web?rsvsvcid=S200821185455620514", "img": "https://yeyak.seoul.go.kr/fileDownload.web?p=/TB_SVCIMG/2020/08/21/S200821185455620514&n=w55G2iH2724uKAO7N6eIt4s8T5p5Ci&on=농구대.jpg", "str": "06:00", "end": "20:00"}, {"name": "이촌한강공원>농구장(1,2,3)", "gu_name": "용산구", "spt_kind": ["농구"], "lat": "126.96213497640897", "lng": "37.520858280612636", "address": "2020년 농구장6(청소년광장)-이촌", "tel": "02-3780-0839", "url": "http://yeyak.seoul.go.kr/reservation/view.web?rsvsvcid=S200821190251108508", "img": "https://yeyak.seoul.go.kr/fileDownload.web?p=/TB_SVCIMG/2020/08/21/S200821190251108508&n=O1h5X6m222HHIu6kowxB4y17C9z8tY&on=농구대.jpg", "str": "06:00", "end": "20:00"}, {"name": "월드컵공원>테니스장", "gu_name": "마포구", "spt_kind": ["테니스"], "lat": null, "lng": null, "address": "10월12일(월)~10월31일(토) 테니스장 A면 (평일야간) - 예약오픈 10월9일(금) 14시", "tel": "02-300-5576", "url": "http://yeyak.seoul.go.kr/reservation/view.web?rsvsvcid=S201008182749611271", "img": "https://yeyak.seoul.go.kr/fileDownload.web?p=/TB_SVCIMG/2020/10/08/S201008182749611271&n=AlgijZv3tNIdj7bJiKg3hba76PV42f&on=IMG_3804.jpg", "str": "19:00", "end": "21:00"}, {"name": "월드컵공원>테니스장", "gu_name": "마포구", "spt_kind": ["테니스"], "lat": null, "lng": null, "address": "10월12일(월)~10월31일(토) 테니스장 B면 (평일야간) - 예약오픈 10월9일(금) 14시", "tel": "02-300-5576", "url": "http://yeyak.seoul.go.kr/reservation/view.web?rsvsvcid=S201008183646786018", "img": "https://yeyak.seoul.go.kr/fileDownload.web?p=/TB_SVCIMG/2020/10/08/S201008183646786018&n=9t67S4i9rAGZ2K6W3V1O6wLWwbDycx&on=IMG_3804.jpg", "str": "19:00", "end": "21:00"}, {"name": "월드컵공원>테니스장", "gu_name": "마포구", "spt_kind": ["테니스"], "lat": null, "lng": null, "address": "10월12일(월)~10월31일(토) 테니스장 B면 (평일주간) - 예약오픈 10월9일(금) 14시", "tel": "02-300-5576", "url": "http://yeyak.seoul.go.kr/reservation/view.web?rsvsvcid=S201008184012856833", "img": "https://yeyak.seoul.go.kr/fileDownload.web?p=/TB_SVCIMG/2020/10/08/S201008184012856833&n=q5kKJC9tBMv26ujaGN41TTO6oqxldj&on=IMG_3804.jpg", "str": "07:00", "end": "19:00"}, {"name": "월드컵공원>테니스장", "gu_name": "마포구", "spt_kind": ["테니스"], "lat": null, "lng": null, "address": "10월12일(월)~10월31일(토) 테니스장 A면 (평일주간) - 예약오픈 10월9일(금) 14시", "tel": "02-300-5576", "url": "http://yeyak.seoul.go.kr/reservation/view.web?rsvsvcid=S201008184258554097", "img": "https://yeyak.seoul.go.kr/fileDownload.web?p=/TB_SVCIMG/2020/10/08/S201008184258554097&n=7FXRL9854qDZFbryCxE6N1kxUdIiau&on=IMG_3804.jpg", "str": "07:00", "end": "19:00"}, {"name": "월드컵공원>테니스장", "gu_name": "마포구", "spt_kind": ["테니스"], "lat": null, "lng": null, "address": "10월12일(월)~10월31일(토) 테니스장 B면 (주말,공휴일) - 예약오픈 10월9일(금) 14시", "tel": "02-300-5576", "url": "http://yeyak.seoul.go.kr/reservation/view.web?rsvsvcid=S201008184512449881", "img": "https://yeyak.seoul.go.kr/fileDownload.web?p=/TB_SVCIMG/2020/10/08/S201008184512449881&n=7a55apffU98kLRp1B7PLtZpauT9sJP&on=IMG_3804.jpg", "str": "07:00", "end": "21:00"}, {"name": "월드컵공원>테니스장", "gu_name": "마포구", "spt_kind": ["테니스"], "lat": null, "lng": null, "address": "10월12일(월)~10월31일(토) 테니스장 A면 (주말,공휴일) - 예약오픈 10월9일(금) 14시", "tel": "02-300-5576", "url": "http://yeyak.seoul.go.kr/reservation/view.web?rsvsvcid=S201008184810207589", "img": "https://yeyak.seoul.go.kr/fileDownload.web?p=/TB_SVCIMG/2020/10/08/S201008184810207589&n=nD4S4jW4783qtvdemi6saR3KR3E7DV&on=IMG_3804.jpg", "str": "07:00", "end": "21:00"}, {"name": "월드컵공원>테니스장", "gu_name": "마포구", "spt_kind": ["테니스"], "lat": null, "lng": null, "address": "2020년11월 테니스장 A면 (주말,공휴일)이용 - 예약오픈 10월15일(목) 14시", "tel": "02-300-5576", "url": "http://yeyak.seoul.go.kr/reservation/view.web?rsvsvcid=S201014160331811640", "img": "https://yeyak.seoul.go.kr/fileDownload.web?p=/TB_SVCIMG/2020/10/14/S201014160331811640&n=agYEVqf6VeNI9V4yC78LNR4K69WJ1b&on=IMG_3804.jpg", "str": "07:00", "end": "21:00"}, {"name": "월드컵공원>테니스장", "gu_name": "마포구", "spt_kind": ["테니스"], "lat": null, "lng": null, "address": "2020년 11월 테니스장 B면 (주말,공휴일) 이용 - 예약오픈 10월15일(목) 14시", "tel": "02-300-5576", "url": "http://yeyak.seoul.go.kr/reservation/view.web?rsvsvcid=S201014161138801941", "img": "https://yeyak.seoul.go.kr/fileDownload.web?p=/TB_SVCIMG/2020/10/14/S201014161138801941&n=FpVVrCm86hQ2BHEmVeEyM9h2Os54Xr&on=IMG_3804.jpg", "str": "07:00", "end": "21:00"}, {"name": "월드컵공원>테니스장", "gu_name": "마포구", "spt_kind": ["테니스"], "lat": null, "lng": null, "address": "2020년 11월 테니스장 A면 (평일주간)이용 - 예약오픈 10월15일(목) 14시", "tel": "02-300-5576", "url": "http://yeyak.seoul.go.kr/reservation/view.web?rsvsvcid=S201014161733318720", "img": "https://yeyak.seoul.go.kr/fileDownload.web?p=/TB_SVCIMG/2020/10/14/S201014161733318720&n=362DecZ4DQBk9334NE9877458FAaNW&on=IMG_3804.jpg", "str": "07:00", "end": "18:00"}, {"name": "월드컵공원>테니스장", "gu_name": "마포구", "spt_kind": ["테니스"], "lat": null, "lng": null, "address": "2020년 11월 테니스장 B면 (평일주간)이용 - 예약오픈 10월15일(목) 14시", "tel": "02-300-5576", "url": "http://yeyak.seoul.go.kr/reservation/view.web?rsvsvcid=S201014162120296307", "img": "https://yeyak.seoul.go.kr/fileDownload.web?p=/TB_SVCIMG/2020/10/14/S201014162120296307&n=3TPTfdJ3Jk1KJSeOut9VyQY9973JtW&on=IMG_3804.jpg", "str": "07:00", "end": "18:00"}, {"name": "월드컵공원>테니스장", "gu_name": "마포구", "spt_kind": ["테니스"], "lat": null, "lng": null, "address": "2020년 11월 테니스장 B면 (평일야간)이용  - 예약오픈 10월15일(목) 14시", "tel": "02-300-5576", "url": "http://yeyak.seoul.go.kr/reservation/view.web?rsvsvcid=S201014162425674752", "img": "https://yeyak.seoul.go.kr/fileDownload.web?p=/TB_SVCIMG/2020/10/14/S201014162425674752&n=nlVb87wr4etmU12e25z5WxEy5pmdwX&on=IMG_3804.jpg", "str": "18:00", "end": "21:00"}, {"name": "월드컵공원>테니스장", "gu_name": "마포구", "spt_kind": ["테니스"], "lat": null, "lng": null, "address": "2020년 11월 테니스장 A면 (평일야간)이용 - 예약오픈 10월15일(목) 14시", "tel": "02-300-5576", "url": "http://yeyak.seoul.go.kr/reservation/view.web?rsvsvcid=S201014162726203299", "img": "https://yeyak.seoul.go.kr/fileDownload.web?p=/TB_SVCIMG/2020/10/14/S201014162726203299&n=XK8jvC5XoR9f56mkxGaP6TJzh9BGfi&on=IMG_3804.jpg", "str": "18:00", "end": "21:00"}, {"name": "반포한강공원>농구장(1,2)", "gu_name": "서초구", "spt_kind": ["농구"], "lat": "127.0042461844334", "lng": "37.5141274709747", "address": "2020년 농구장1(상류)-반포", "tel": "02-3780-0839", "url": "http://yeyak.seoul.go.kr/reservation/view.web?rsvsvcid=S191116175758117374", "img": "https://yeyak.seoul.go.kr/fileDownload.web?p=/TB_SVCIMG/2019/11/16/S191116175758117374&n=AlCxU7EEg5BKtmVSfoQ5g65v4iwCHh&on=농구대.jpg", "str": "06:00", "end": "20:00"}, {"name": "반포한강공원>농구장(1,2)", "gu_name": "서초구", "spt_kind": ["농구"], "lat": "127.0042461844334", "lng": "37.5141274709747", "address": "2020년 농구장2(상류)-반포", "tel": "02-3780-0839", "url": "http://yeyak.seoul.go.kr/reservation/view.web?rsvsvcid=S191116180356865336", "img": "https://yeyak.seoul.go.kr/fileDownload.web?p=/TB_SVCIMG/2019/11/16/S191116180356865336&n=a51gLoxHA3vtn8eM97DH584MY9COAC&on=농구대.jpg", "str": "06:00", "end": "20:00"}, {"name": "양화한강공원>농구장(1,2)", "gu_name": "영등포구", "spt_kind": ["농구"], "lat": "126.89430383414829", "lng": "37.54355831711085", "address": "2020년 농구장1-양화", "tel": "02-3780-0839", "url": "http://yeyak.seoul.go.kr/reservation/view.web?rsvsvcid=S191116164625258660", "img": "https://yeyak.seoul.go.kr/fileDownload.web?p=/TB_SVCIMG/2019/11/16/S191116164625258660&n=f6HRs2uHa9U9Yc19QshAidooX6nbiz&on=농구대.jpg", "str": "06:00", "end": "20:00"}, {"name": "양화한강공원>농구장(1,2)", "gu_name": "영등포구", "spt_kind": ["농구"], "lat": "126.89430383414829", "lng": "37.54355831711085", "address": "2020년 농구장2-양화", "tel": "02-3780-0839", "url": "http://yeyak.seoul.go.kr/reservation/view.web?rsvsvcid=S191116165832504474", "img": "https://yeyak.seoul.go.kr/fileDownload.web?p=/TB_SVCIMG/2019/11/16/S191116165832504474&n=LnQV5e5laZ9So8raOaGXs7gcCJOchy&on=농구대.jpg", "str": "06:00", "end": "20:00"}, {"name": "난지한강공원>농구장", "gu_name": "마포구", "spt_kind": ["농구"], "lat": "126.88067268611316", "lng": "37.565138630720334", "address": "2020년 농구장1-난지", "tel": "02-3780-0839", "url": "http://yeyak.seoul.go.kr/reservation/view.web?rsvsvcid=S191116170600882021", "img": "https://yeyak.seoul.go.kr/fileDownload.web?p=/TB_SVCIMG/2019/11/16/S191116170600882021&n=Or89yiWWuclD1Ys67zu1K3KSo2zKQ4&on=농구대.jpg", "str": "06:00", "end": "20:00"}, {"name": "인재개발원 테니스장", "gu_name": "서초구", "spt_kind": ["테니스"], "lat": "127.02343534049716", "lng": "37.481194337398286", "address": "인재개발원 테니스장(인조잔디 A면) 대관", "tel": "02-3488-2039", "url": "http://yeyak.seoul.go.kr/reservation/view.web?rsvsvcid=S190502151751379566", "img": "https://yeyak.seoul.go.kr/fileDownload.web?p=/TB_SVCIMG/2019/05/02/S190502151751379566&n=311uiQXfLRuZ639rOqWNJ5AzM44P3L&on=20160601_095310.jpg", "str": "13:00", "end": "19:00"}, {"name": "인재개발원 테니스장", "gu_name": "서초구", "spt_kind": ["테니스"], "lat": "127.02343534049716", "lng": "37.481194337398286", "address": "인재개발원 테니스장(인조잔디 B면) 대관", "tel": "02-3488-2039", "url": "http://yeyak.seoul.go.kr/reservation/view.web?rsvsvcid=S190502160848522070", "img": "https://yeyak.seoul.go.kr/fileDownload.web?p=/TB_SVCIMG/2019/05/02/S190502160848522070&n=J66byw5Tn7t8ZwSrZCrao4WKj6dR8q&on=20160601_095310.jpg", "str": "13:00", "end": "19:00"}, {"name": "서울숲", "gu_name": "성동구", "spt_kind": ["테니스"], "lat": null, "lng": null, "address": "테니스장 1 코트 (평일, 이용기간 2020. 1. 1~12. 31) - 서울숲", "tel": "02-460-2919", "url": "http://yeyak.seoul.go.kr/reservation/view.web?rsvsvcid=S191114145329457325", "img": "https://yeyak.seoul.go.kr/fileDownload.web?p=/TB_SVCIMG/2019/11/14/S191114145329457325&n=V2c3wWqViV8CFk7xy24E8DORRhKiQJ&on=테니스장 전경.jpg", "str": "06:00", "end": "19:00"}, {"name": "서울숲", "gu_name": "성동구", "spt_kind": ["테니스"], "lat": null, "lng": null, "address": "테니스장 2 코트 (평일, 이용기간 2020. 1. 1~12. 31) - 서울숲", "tel": "02-460-2919", "url": "http://yeyak.seoul.go.kr/reservation/view.web?rsvsvcid=S191114152518061024", "img": "https://yeyak.seoul.go.kr/fileDownload.web?p=/TB_SVCIMG/2019/11/14/S191114152518061024&n=XgqMDHU33zOGd4zRU5jY8t645sA8rY&on=테니스장 전경.jpg", "str": "06:00", "end": "19:00"}, {"name": "서울숲", "gu_name": "성동구", "spt_kind": ["테니스"], "lat": null, "lng": null, "address": "테니스장 3 코트 (평일, 이용기간 2020. 1. 1~12. 31) - 서울숲", "tel": "02-460-2919", "url": "http://yeyak.seoul.go.kr/reservation/view.web?rsvsvcid=S191128092714870859", "img": "https://yeyak.seoul.go.kr/fileDownload.web?p=/TB_SVCIMG/2019/11/28/S191128092714870859&n=6Hf4XXJA336WU9uBQLCND5XnSa3fo5&on=테니스장 전경.jpg", "str": "06:00", "end": "19:00"}, {"name": "서울숲", "gu_name": "성동구", "spt_kind": ["테니스"], "lat": null, "lng": null, "address": "테니스장 4  코트(평일, 이용기간 2020. 1. 1~12. 31) - 서울숲", "tel": "02-460-2919", "url": "http://yeyak.seoul.go.kr/reservation/view.web?rsvsvcid=S191128093810818869", "img": "https://yeyak.seoul.go.kr/fileDownload.web?p=/TB_SVCIMG/2019/11/28/S191128093810818869&n=ie1LDKM3Ir1TPFuB3o6s8v71TnqgQl&on=테니스장 전경.jpg", "str": "06:00", "end": "19:00"}, {"name": "서울숲", "gu_name": "성동구", "spt_kind": ["테니스"], "lat": null, "lng": null, "address": "테니스장 5 코트(평일, 이용기간 2020. 1. 1~12. 31) - 서울숲", "tel": "02-460-2919", "url": "http://yeyak.seoul.go.kr/reservation/view.web?rsvsvcid=S191128094631339644", "img": "https://yeyak.seoul.go.kr/fileDownload.web?p=/TB_SVCIMG/2019/11/28/S191128094631339644&n=6tVzl35EM8E7HgzuZY6Yt6xQeSEB99&on=테니스장 전경.jpg", "str": "06:00", "end": "19:00"}, {"name": "서울숲", "gu_name": "성동구", "spt_kind": ["테니스"], "lat": null, "lng": null, "address": "테니스장 1 코트 (토/일/공휴일, 이용기간 2020. 1. 1~12. 31) - 서울숲", "tel": "024602919", "url": "http://yeyak.seoul.go.kr/reservation/view.web?rsvsvcid=S191129192201977314", "img": "https://yeyak.seoul.go.kr/fileDownload.web?p=/TB_SVCIMG/2019/11/29/S191129192201977314&n=6v4M2aJ5l7VlkaFLowt8pFtfH4Vx7H&on=테니스장 전경.jpg", "str": "06:00", "end": "19:00"}, {"name": "서울숲", "gu_name": "성동구", "spt_kind": ["테니스"], "lat": null, "lng": null, "address": "테니스장 2 코트 (토/일/공휴일, 이용기간 2020. 1. 1~12. 31) - 서울숲", "tel": "024602919", "url": "http://yeyak.seoul.go.kr/reservation/view.web?rsvsvcid=S191130105735725696", "img": "https://yeyak.seoul.go.kr/fileDownload.web?p=/TB_SVCIMG/2019/11/30/S191130105735725696&n=tgQT3Uhvihsc421Le55R38Mao5alHD&on=테니스장 전경.jpg", "str": "06:00", "end": "19:00"}, {"name": "서울숲", "gu_name": "성동구", "spt_kind": ["테니스"], "lat": null, "lng": null, "address": "테니스장 3 코트 (토/일/공휴일, 이용기간 2020. 1. 1~12. 31) - 서울숲", "tel": "024602919", "url": "http://yeyak.seoul.go.kr/reservation/view.web?rsvsvcid=S191130112934106865", "img": "https://yeyak.seoul.go.kr/fileDownload.web?p=/TB_SVCIMG/2019/11/30/S191130112934106865&n=z348OnyUIH14TkLxTDTjIGAo1PcB28&on=테니스장 전경.jpg", "str": "06:00", "end": "19:00"}, {"name": "서울숲", "gu_name": "성동구", "spt_kind": ["테니스"], "lat": null, "lng": null, "address": "테니스장 4 코트(토/일/공휴일, 이용기간 2020. 1. 1~12. 31) - 서울숲", "tel": "024602919", "url": "http://yeyak.seoul.go.kr/reservation/view.web?rsvsvcid=S191130113710243465", "img": "https://yeyak.seoul.go.kr/fileDownload.web?p=/TB_SVCIMG/2019/11/30/S191130113710243465&n=3JY9Hq8vhej516oggigi6jJTaes2nk&on=테니스장 전경.jpg", "str": "06:00", "end": "19:00"}, {"name": "서울숲", "gu_name": "성동구", "spt_kind": ["테니스"], "lat": null, "lng": null, "address": "테니스장 5 코트 (토/일/공휴일, 이용기간 2020. 1. 1~12. 31) - 서울숲", "tel": "024602919", "url": "http://yeyak.seoul.go.kr/reservation/view.web?rsvsvcid=S191130114549911226", "img": "https://yeyak.seoul.go.kr/fileDownload.web?p=/TB_SVCIMG/2019/11/30/S191130114549911226&n=B8WPHr1HuX4prxX58P4PYrWgcsvEii&on=테니스장 전경.jpg", "str": "06:00", "end": "19:00"}, {"name": "응봉테니스장>응봉테니스장 4코트", "gu_name": "성동구", "spt_kind": ["테니스"], "lat": "127.03492749262553", "lng": "37.55044984861186", "address": "4코트 평일(월~금)", "tel": "02-2204-7654", "url": "http://yeyak.seoul.go.kr/reservation/view.web?rsvsvcid=S200226154243107837", "img": "https://yeyak.seoul.go.kr/fileDownload.web?p=/TB_SVCIMG/2020/02/26/S200226154243107837&n=rg294AWJXB4zTiVn8SmCFrg14Rod97&on=[크기변환]1571115055925-0.jpg", "str": "06:00", "end": "22:00"}, {"name": "응봉테니스장>응봉테니스장 4코트", "gu_name": "성동구", "spt_kind": ["테니스"], "lat": "127.03492749262553", "lng": "37.55044984861186", "address": "4코트 토요일, 일요일, 공휴일", "tel": "02-2204-7654", "url": "http://yeyak.seoul.go.kr/reservation/view.web?rsvsvcid=S200228164916164080", "img": "https://yeyak.seoul.go.kr/fileDownload.web?p=/TB_SVCIMG/2020/02/28/S200228164916164080&n=WC6gP56S8OBUHS9NsODsA2dn1Mtc54&on=[크기변환]1571115055925-0.jpg", "str": "06:00", "end": "22:00"}, {"name": "광나루한강공원>농구장 1, 2 ", "gu_name": "강동구", "spt_kind": ["농구"], "lat": "127.12294525264929", "lng": "37.55301471283899", "address": "2020년 농구장1-광나루", "tel": "02-3780-0839", "url": "http://yeyak.seoul.go.kr/reservation/view.web?rsvsvcid=S191116181029196351", "img": "https://yeyak.seoul.go.kr/fileDownload.web?p=/TB_SVCIMG/2019/11/16/S191116181029196351&n=r4Rn7AW4gs98a15h8OyLrHO8mipQ68&on=농구대.jpg", "str": "06:00", "end": "20:00"}, {"name": "광나루한강공원>농구장 1, 2 ", "gu_name": "강동구", "spt_kind": ["농구"], "lat": "127.12294525264929", "lng": "37.55301471283899", "address": "2020년 농구장2-광나루", "tel": "02-3780-0839", "url": "http://yeyak.seoul.go.kr/reservation/view.web?rsvsvcid=S191116181600026051", "img": "https://yeyak.seoul.go.kr/fileDownload.web?p=/TB_SVCIMG/2019/11/16/S191116181600026051&n=RNnZao3M2tpDdRf2531iH8eV2Jtm1x&on=농구대.jpg", "str": "06:00", "end": "20:00"}, {"name": "뚝섬한강공원>농구장 1", "gu_name": "광진구", "spt_kind": ["농구"], "lat": "127.0769700954793", "lng": "37.52770490714091", "address": "2020년 농구장1-뚝섬", "tel": "02-3780-0839", "url": "http://yeyak.seoul.go.kr/reservation/view.web?rsvsvcid=S191116182347103193", "img": "https://yeyak.seoul.go.kr/fileDownload.web?p=/TB_SVCIMG/2019/11/16/S191116182347103193&n=Z5lPf6BtR1z5iqjKtLVuym13vP6KtV&on=농구대.jpg", "str": "06:00", "end": "20:00"}, {"name": "센터내", "gu_name": "강서구", "spt_kind": ["테니스"], "lat": null, "lng": null, "address": "서남물재생센터", "tel": "02-3660-2254", "url": "http://tennis.seonam.seoul.kr/", "img": null, "str": null, "end": null}, {"name": "잠원한강공원>농구장(1,2,3,4)", "gu_name": "서초구", "spt_kind": ["농구"], "lat": "127.01734493054098", "lng": "37.52606005936199", "address": "2020년 농구장1-잠원", "tel": "02-3780-0839", "url": "http://yeyak.seoul.go.kr/reservation/view.web?rsvsvcid=S191116184432793063", "img": "https://yeyak.seoul.go.kr/fileDownload.web?p=/TB_SVCIMG/2019/11/16/S191116184432793063&n=jau7o12Kto5YA547dJ5y13oOkDxYCX&on=농구대.jpg", "str": "06:00", "end": "20:00"}, {"name": "잠원한강공원>농구장(1,2,3,4)", "gu_name": "서초구", "spt_kind": ["농구"], "lat": "127.01734493054098", "lng": "37.52606005936199", "address": "2020년 농구장2-잠원", "tel": "02-3780-0839", "url": "http://yeyak.seoul.go.kr/reservation/view.web?rsvsvcid=S191117135545799309", "img": "https://yeyak.seoul.go.kr/fileDownload.web?p=/TB_SVCIMG/2019/11/17/S191117135545799309&n=7CSjzavz4j741OfxX7Ab5B63fvyZ3a&on=농구대.jpg", "str": "06:00", "end": "20:00"}, {"name": "잠원한강공원>농구장(1,2,3,4)", "gu_name": "서초구", "spt_kind": ["농구"], "lat": "127.01734493054098", "lng": "37.52606005936199", "address": "2020년 농구장3-잠원", "tel": "02-3780-0839", "url": "http://yeyak.seoul.go.kr/reservation/view.web?rsvsvcid=S191117140054284670", "img": "https://yeyak.seoul.go.kr/fileDownload.web?p=/TB_SVCIMG/2019/11/17/S191117140054284670&n=G8pEl3Zu149CU5a7miI31N4913R47a&on=농구대.jpg", "str": "06:00", "end": "20:00"}, {"name": "잠원한강공원>농구장(1,2,3,4)", "gu_name": "서초구", "spt_kind": ["농구"], "lat": "127.01734493054098", "lng": "37.52606005936199", "address": "2020년 농구장4-잠원", "tel": "02-3780-0839", "url": "http://yeyak.seoul.go.kr/reservation/view.web?rsvsvcid=S191117140557559034", "img": "https://yeyak.seoul.go.kr/fileDownload.web?p=/TB_SVCIMG/2019/11/17/S191117140557559034&n=zv1AMbi168Dl7CK3JkK31Xsb4Zjoj1&on=농구대.jpg", "str": "06:00", "end": "20:00"}, {"name": "중랑물재생센터>테니스장", "gu_name": "성동구", "spt_kind": ["테니스"], "lat": null, "lng": null, "address": "2020년 중랑물재생센터 테니스장A", "tel": "02-2211-2522", "url": "http://yeyak.seoul.go.kr/reservation/view.web?rsvsvcid=S191126095403329465", "img": "https://yeyak.seoul.go.kr/fileDownload.web?p=/TB_SVCIMG/2019/11/26/S191126095403329465&n=5e8CMl175HzrcvC5Wg9dD5hI8xZFIB&on=축구장.jpg", "str": "06:00", "end": "18:00"}, {"name": "중랑물재생센터>테니스장", "gu_name": "성동구", "spt_kind": ["테니스"], "lat": null, "lng": null, "address": "2020년 중랑물재생센터 테니스장B", "tel": "02-2211-2522", "url": "http://yeyak.seoul.go.kr/reservation/view.web?rsvsvcid=S191126095746411980", "img": "https://yeyak.seoul.go.kr/fileDownload.web?p=/TB_SVCIMG/2019/11/26/S191126095746411980&n=KqUQMFP6ia1HQdpJBtmlvZ5oO1Fu7e&on=축구장.jpg", "str": "06:00", "end": "18:00"}, {"name": "우장테니스장", "gu_name": "강서구", "spt_kind": ["테니스"], "lat": "126.845603681966", "lng": "37.5506510403569", "address": "10월 우장테니스장 1~4코트 평일", "tel": null, "url": "http://yeyak.seoul.go.kr/reservation/view.web?rsvsvcid=S200927093654421725", "img": "https://yeyak.seoul.go.kr/fileDownload.web?p=/TB_SVCIMG/2020/09/27/S200927093654421725&n=HoO34MP427wPAhXPfLh8L5Ua5ZX287&on=테니스장 봄 (2).JPG", "str": "09:00", "end": "18:00"}, {"name": "우장테니스장", "gu_name": "강서구", "spt_kind": ["테니스"], "lat": "126.845603681966", "lng": "37.5506510403569", "address": "10월 우장테니스장 1~4코트 휴일", "tel": null, "url": "http://yeyak.seoul.go.kr/reservation/view.web?rsvsvcid=S200927095308063915", "img": "https://yeyak.seoul.go.kr/fileDownload.web?p=/TB_SVCIMG/2020/09/27/S200927095308063915&n=lEd4I733p7W59KtMpR82oZdQ22PH9C&on=테니스장 봄 (2).JPG", "str": "09:00", "end": "18:00"}, {"name": "우장테니스장", "gu_name": "강서구", "spt_kind": ["테니스"], "lat": "126.845603681966", "lng": "37.5506510403569", "address": "10월 우장테니스장 1~4코트 평일 새벽임시운영 (07~09시)", "tel": null, "url": "http://yeyak.seoul.go.kr/reservation/view.web?rsvsvcid=S200927103207379429", "img": "https://yeyak.seoul.go.kr/fileDownload.web?p=/TB_SVCIMG/2020/09/27/S200927103207379429&n=O54O8qHL3Z9Gr4OX4vVU9M77yc593a&on=테니스장 봄 (2).JPG", "str": "07:00", "end": "09:00"}, {"name": "우장테니스장", "gu_name": "강서구", "spt_kind": ["테니스"], "lat": "126.845603681966", "lng": "37.5506510403569", "address": "10월 우장테니스장 1~4코트 휴일 새벽임시운영 (07~09시)", "tel": null, "url": "http://yeyak.seoul.go.kr/reservation/view.web?rsvsvcid=S200927104106248454", "img": "https://yeyak.seoul.go.kr/fileDownload.web?p=/TB_SVCIMG/2020/09/27/S200927104106248454&n=sOJEKz1ks1CLb273urqci9nqZDM6d1&on=테니스장 봄 (2).JPG", "str": "07:00", "end": "09:00"}, {"name": "우장테니스장", "gu_name": "강서구", "spt_kind": ["테니스"], "lat": "126.845603681966", "lng": "37.5506510403569", "address": "11월 우장테니스장 1~4코트 휴일", "tel": null, "url": "http://yeyak.seoul.go.kr/reservation/view.web?rsvsvcid=S201012101747539063", "img": "https://yeyak.seoul.go.kr/fileDownload.web?p=/TB_SVCIMG/2020/10/12/S201012101747539063&n=F87u3l92Q1Ezc7jkKW7y5WylCEk9eY&on=테니스장 봄 (2).JPG", "str": "08:00", "end": "17:00"}, {"name": "우장테니스장", "gu_name": "강서구", "spt_kind": ["테니스"], "lat": "126.845603681966", "lng": "37.5506510403569", "address": "11월 우장테니스장 1~4코트 평일", "tel": null, "url": "http://yeyak.seoul.go.kr/reservation/view.web?rsvsvcid=S201012103550142218", "img": "https://yeyak.seoul.go.kr/fileDownload.web?p=/TB_SVCIMG/2020/10/12/S201012103550142218&n=pDxWGG9dLUxMDtSx2Rt7W8g8531uKB&on=테니스장 봄 (1).JPG", "str": "08:00", "end": "17:00"}, {"name": "마루공원", "gu_name": "강남구", "spt_kind": ["풋살"], "lat": null, "lng": null, "address": "탄천물재생센터", "tel": "02-3410-9709", "url": "http://tancheonpark.com/kr/index.php", "img": null, "str": null, "end": null}, {"name": "센터내", "gu_name": "강남구", "spt_kind": ["테니스"], "lat": null, "lng": null, "address": "탄천물재생센터", "tel": "02-3410-9709", "url": "http://tancheonpark.com/kr/index.php", "img": null, "str": null, "end": null}, {"name": "마루공원", "gu_name": "강남구", "spt_kind": ["테니스"], "lat": null, "lng": null, "address": "탄천물재생센터", "tel": "02-3410-9709", "url": "http://tancheonpark.com/kr/index.php", "img": null, "str": null, "end": null}, {"name": "일원에코파크", "gu_name": "강남구", "spt_kind": ["풋살"], "lat": null, "lng": null, "address": "탄천물재생센터", "tel": "02-3410-9709", "url": "http://tancheonpark.com/kr/index.php", "img": null, "str": null, "end": null}]